,City,Cloudiness,Country,Date,Humidity,Lat,Lng,Max Temp,Wind Speed
0,Ostersund,81,SE,1563578926,77,63.18,14.64,59.0,11.41
1,Cape Town,20,ZA,1563578654,70,-33.93,18.42,50.0,9.17
2,Butaritari,65,KI,1563578811,68,3.07,172.79,84.94,8.34
3,Nevsehir,0,TR,1563579118,72,38.62,34.71,61.0,4.68
4,Hermanus,29,ZA,1563578862,99,-34.42,19.24,48.99,16.93
5,Nhulunbuy,1,AU,1563579120,78,-12.18,136.78,75.2,9.17
6,Hovd,75,NO,1563579122,87,63.83,10.7,57.99,5.82
7,Longyearbyen,75,NO,1563578919,81,78.22,15.63,44.6,3.36
8,Mazara del Vallo,0,IT,1563579124,88,37.65,12.59,81.0,1.12
9,Buin,100,CL,1563579125,50,-33.73,-70.74,57.2,5.82
10,Vaini,100,IN,1563578824,91,15.34,74.49,76.84,0.94
11,Nemuro,100,JP,1563579000,96,43.32,145.57,57.94,9.31
12,Mataura,100,NZ,1563578879,97,-46.19,168.86,48.0,8.01
13,Bethel,90,US,1563579130,93,60.79,-161.76,57.2,12.75
14,Airai,0,TL,1563578896,53,-8.93,125.41,76.84,1.54
15,Mapiripan,10,CO,1563578596,92,2.89,-72.13,73.77,3.51
16,Dikson,16,RU,1563578877,79,73.51,80.55,40.65,19.98
17,Sabang,100,PH,1563579135,74,13.8,121.11,82.42,2.33
18,Punta Arenas,0,CL,1563578518,82,-53.16,-70.91,35.6,14.99
19,Modakeke,100,NG,1563579137,98,7.38,4.27,71.25,1.63
20,Ust-Kuyga,100,RU,1563579138,65,70.0,135.55,43.17,2.13
21,Sungai Besar,75,MY,1563579140,94,3.68,100.99,75.2,17.02
22,Victoria,75,BN,1563579003,94,5.28,115.24,80.6,8.3
23,Ushuaia,20,AR,1563578815,64,-54.81,-68.31,37.4,3.36
24,Zemio,70,CF,1563579143,93,5.02,25.13,67.84,0.78
25,Albany,75,US,1563578717,59,42.65,-73.75,89.6,4.7
26,Elizabethton,1,US,1563579146,62,36.35,-82.21,87.8,3.36
27,Tasiilaq,99,GL,1563578925,87,65.61,-37.64,44.6,8.05
28,Rikitea,80,PF,1563578830,59,-23.12,-134.97,66.57,13.49
29,Kapaa,40,US,1563578847,70,22.08,-159.32,86.0,17.22
30,Jamestown,0,AU,1563578822,43,-33.21,138.6,56.14,17.38
31,Ilulissat,75,GL,1563578867,76,69.22,-51.1,50.0,4.7
32,Klaksvik,73,FO,1563579040,100,62.23,-6.59,50.0,11.41
33,Tirumullaivasal,80,IN,1563579153,77,11.24,79.84,79.54,8.88
34,Lompoc,1,US,1563579031,64,34.64,-120.46,73.0,14.99
35,Rawson,50,AR,1563579156,40,-43.3,-65.11,43.9,27.58
36,Dubbo,0,AU,1563579157,81,-32.25,148.6,42.8,6.93
37,Lagoa,0,PT,1563579158,57,37.14,-8.45,77.0,5.82
38,Darhan,88,MN,1563579159,80,49.49,105.92,64.42,1.36
39,Bluff,0,AU,1563578817,53,-23.58,149.07,63.15,13.06
40,Wesselsbron,0,ZA,1563579162,70,-27.85,26.36,33.01,8.55
41,Ponta do Sol,5,BR,1563579075,65,-20.63,-46.0,55.24,4.94
42,Codrington,0,AU,1563579164,76,-28.95,153.24,59.0,8.05
43,Naze,100,NG,1563579165,97,5.43,7.07,71.97,3.04
44,Severo-Kurilsk,100,RU,1563578966,98,50.68,156.12,47.14,2.77
45,Hasaki,75,JP,1563579087,78,35.73,140.83,82.0,9.17
46,Forestville,75,CA,1563579169,88,48.74,-69.09,64.4,4.7
47,Xining,0,CN,1563579170,66,36.62,101.77,52.72,1.03
48,Bambous Virieux,40,MU,1563579071,88,-20.34,57.76,70.0,11.41
49,Chandler,1,US,1563579172,13,33.31,-111.84,108.0,13.87
50,Clyde River,40,CA,1563579173,87,70.47,-68.59,46.4,3.36
51,Saskylakh,96,RU,1563578944,40,71.97,114.09,64.6,14.9
52,Abu Kamal,0,SY,1563579176,46,34.45,40.92,76.47,18.81
53,San Cristobal,46,HN,1563579177,74,14.68,-86.92,72.7,9.04
54,Rozkishne,10,UA,1563579178,80,48.5,37.59,60.27,3.31
55,Busselton,17,AU,1563578849,98,-33.64,115.35,43.0,26.13
56,Arraial do Cabo,40,BR,1563579088,68,-22.97,-42.02,66.2,6.93
57,Jalu,0,LY,1563579181,46,29.03,21.55,77.92,12.03
58,Bilibino,99,RU,1563579183,51,68.06,166.44,46.95,4.92
59,Nhamunda,51,BR,1563579184,79,-2.19,-56.71,76.3,1.99
60,Shubarshi,0,KZ,1563579185,62,48.59,57.19,76.12,16.62
61,Thompson,75,CA,1563578637,67,55.74,-97.86,60.8,18.34
62,Provideniya,87,RU,1563579017,70,64.42,-173.23,57.94,10.18
63,Gaoual,42,GN,1563579189,91,11.75,-13.2,74.67,6.53
64,Yellowknife,75,CA,1563578922,42,62.45,-114.38,68.0,9.17
65,Rio Grande,8,BR,1563579191,89,-32.03,-52.1,60.01,4.65
66,Port Lincoln,0,AU,1563578843,55,-34.72,135.86,60.45,29.8
67,Castro,20,CL,1563579019,86,-42.48,-73.76,41.0,8.05
68,Sorong,82,ID,1563579013,84,-0.86,131.25,78.64,6.96
69,Saldanha,0,PT,1563578976,62,41.42,-6.55,68.02,4.94
70,Leshukonskoye,77,RU,1563579196,88,64.9,45.76,48.22,6.02
71,Hithadhoo,93,MV,1563578819,76,-0.6,73.08,83.14,18.25
72,Sola,68,TZ,1563579199,54,-3.17,33.8,67.84,4.12
73,Namatanai,61,PG,1563578647,81,-3.66,152.44,80.62,14.81
74,Kuching,75,MY,1563579201,94,1.56,110.34,78.8,1.01
75,New Norfolk,75,AU,1563578868,75,-42.78,147.06,44.6,9.17
76,Atuona,100,PF,1563578987,67,-9.8,-139.03,80.44,9.1
77,La Ronge,20,CA,1563578963,60,55.1,-105.3,71.6,14.99
78,Suntar,0,RU,1563579206,54,62.16,117.65,58.47,5.86
79,Avarua,13,CK,1563578807,88,-21.21,-159.78,75.2,4.7
80,Qaanaaq,100,GL,1563578823,95,77.48,-69.36,39.04,6.64
81,Mareeba,0,AU,1563578668,67,-16.99,145.42,68.0,12.75
82,Ulaangom,50,MN,1563579210,57,49.98,92.07,65.14,8.08
83,Solnechnyy,98,RU,1563579033,79,50.72,136.64,74.5,3.09
84,Baculin,38,PH,1563579212,60,7.45,126.58,81.15,1.48
85,Komsomolskoye,0,UA,1563579214,63,45.02,34.02,62.62,3.94
86,Kotka,0,FI,1563579215,82,60.47,26.95,60.8,9.17
87,Tevaitoa,26,PF,1563578972,79,-16.78,-151.5,75.04,20.8
88,Scarborough,100,GB,1563579217,93,54.28,-0.41,64.0,9.17
89,Port Alfred,45,ZA,1563578806,88,-33.59,26.89,50.0,11.99
90,Viedma,100,AR,1563578964,48,-40.81,-62.99,51.27,13.06
91,Pochutla,75,MX,1563579220,74,15.74,-96.47,86.0,0.63
92,Bratsk,75,RU,1563579222,93,56.15,101.63,53.6,11.18
93,Gedo,100,ET,1563579223,99,9.01,37.45,57.57,0.78
94,Maniitsoq,100,GL,1563578978,89,65.42,-52.9,43.72,3.94
95,Tiksi,89,RU,1563579036,42,71.64,128.87,53.07,10.71
96,Gat,25,SN,1563579226,74,14.69,-16.54,78.8,2.24
97,Saint-Philippe,1,CA,1563578914,66,45.36,-73.48,87.01,17.22
98,Dekar,0,BW,1563579228,21,-21.53,21.93,53.25,6.89
99,Guerrero Negro,0,MX,1563579230,85,27.97,-114.04,64.95,19.3
100,Cidreira,17,BR,1563578951,82,-30.17,-50.22,60.82,4.79
101,Hilo,1,US,1563578665,58,19.71,-155.08,84.99,10.29
102,Port Blair,95,IN,1563578855,77,11.67,92.75,81.87,11.39
103,Hofn,93,IS,1563579234,95,64.25,-15.21,39.94,11.72
104,Adrar,74,DZ,1563579235,15,27.87,-0.29,102.2,12.75
105,Jiexiu,100,CN,1563579237,86,37.02,111.92,70.0,0.74
106,Belmonte,0,PT,1563579238,82,40.36,-7.35,63.0,3.49
107,Calvinia,29,ZA,1563579239,92,-31.47,19.78,37.24,2.75
108,Madikeri,90,IN,1563579240,100,12.42,75.74,73.4,2.24
109,Sao Felix do Xingu,0,BR,1563578993,58,-6.64,-51.99,74.14,3.83
110,Andros Town,40,BS,1563579243,66,24.73,-77.79,86.0,12.75
111,Fare,26,PF,1563578959,79,-16.7,-151.02,75.04,20.8
112,Saint-Ambroise,20,CA,1563579023,45,48.56,-71.32,84.2,14.99
113,Bathsheba,40,BB,1563579246,78,13.22,-59.52,80.6,11.41
114,Kavaratti,100,IN,1563578858,74,10.57,72.64,82.6,23.55
115,Ostrovnoy,45,RU,1563579248,96,68.05,39.51,40.12,7.47
116,Kaitangata,100,NZ,1563579080,89,-46.28,169.85,50.0,7.0
117,Ancud,20,CL,1563579251,86,-41.87,-73.83,41.0,8.05
118,Isangel,90,VU,1563578955,64,-19.55,169.27,75.2,9.17
119,East London,30,ZA,1563578901,58,-33.02,27.91,48.4,24.7
120,Hefei,6,CN,1563579254,94,31.82,117.22,78.8,2.24
121,Iqaluit,75,CA,1563579018,87,63.75,-68.52,46.4,3.36
122,Araouane,60,ML,1563579256,36,18.9,-3.53,91.42,18.39
123,Vostok,1,RU,1563579258,65,46.45,135.83,79.0,0.47
124,Mayo,90,CA,1563579259,49,63.59,-135.9,73.4,3.36
125,Chokurdakh,100,RU,1563578947,70,70.62,147.9,41.74,9.13
126,Lebu,75,ET,1563578995,93,8.96,38.73,53.6,4.7
127,Khatanga,52,RU,1563578829,44,71.98,102.47,69.64,8.72
128,Geraldton,90,CA,1563579192,50,49.72,-86.95,77.0,14.99
129,Bredasdorp,52,ZA,1563578826,81,-34.53,20.04,48.2,8.05
130,Sabha,0,LY,1563579266,27,27.03,14.43,82.77,15.39
131,Lamu,0,CN,1563579267,73,35.77,102.37,54.52,1.01
132,Constitucion,90,MX,1563578891,77,23.99,-104.67,60.8,14.99
133,Ilheus,75,BR,1563579269,83,-14.79,-39.05,71.6,11.41
134,Petropavlovsk-Kamchatskiy,40,RU,1563579067,77,53.05,158.65,66.2,6.71
135,Puerto Suarez,69,BO,1563579271,73,-18.96,-57.8,75.2,4.7
136,Ixtapa,90,MX,1563579273,94,20.71,-105.21,78.01,4.7
137,Fortuna,20,US,1563579274,63,40.6,-124.16,66.0,14.99
138,Nagaur,33,IN,1563579275,48,27.2,73.74,90.7,4.25
139,Coihaique,75,CL,1563578940,98,-45.58,-72.07,33.8,5.82
140,Acapulco,75,MX,1563579277,70,16.86,-99.88,87.8,5.82
141,Bogalusa,1,US,1563579278,55,30.79,-89.85,91.4,6.93
142,Espanola,2,CA,1563579067,57,46.27,-81.77,82.99,10.0
143,Walvis Bay,0,NA,1563579281,51,-22.95,14.51,62.6,1.12
144,Mercedes,95,UY,1563579282,79,-33.25,-58.03,60.01,1.99
145,Kavieng,4,PG,1563579283,76,-2.57,150.8,83.85,13.47
146,Touros,75,BR,1563579095,100,-5.2,-35.46,73.4,10.29
147,Udachnyy,0,RU,1563579286,54,66.42,112.4,55.4,2.24
148,Praia,75,BR,1563579287,55,-20.25,-43.81,64.4,6.93
149,Vao,10,EE,1563578883,95,59.1,26.19,55.24,5.44
150,Nikolskoye,90,RU,1563578941,93,59.7,30.79,61.0,6.71
151,Harlingen,90,NL,1563579290,93,53.18,5.41,66.99,11.41
152,Ignalina,9,LT,1563579292,85,55.34,26.16,52.72,3.8
153,Harper,1,US,1563579293,36,30.3,-99.24,95.0,13.87
154,Khorixas,0,NA,1563579294,21,-20.37,14.96,58.84,4.14
155,Ribeira Grande,0,PT,1563578948,90,38.52,-28.7,72.87,13.0
156,Husavik,0,CA,1563579296,35,50.56,-96.99,75.99,21.0
157,Salalah,75,OM,1563579026,94,17.01,54.1,78.8,3.36
158,Saint George,20,GR,1563579299,77,39.45,22.34,75.0,2.21
159,Kodiak,0,US,1563578866,53,39.95,-94.76,97.0,14.99
160,Mahebourg,40,MU,1563578999,88,-20.41,57.7,70.0,11.41
161,Uri,0,IN,1563579302,85,34.09,74.03,56.14,4.36
162,Sisimiut,100,GL,1563579303,91,66.94,-53.67,41.74,11.72
163,Komatipoort,0,MZ,1563579305,17,-25.43,31.96,73.4,6.93
164,Saint-Alexandre,0,FR,1563579306,63,44.23,4.62,71.01,4.7
165,Bima,14,ID,1563579307,79,-8.45,118.73,73.24,2.89
166,Barrow,100,AR,1563578899,52,-38.31,-60.23,49.12,10.96
167,Pisco,90,PE,1563579102,30,-13.71,-76.2,71.6,8.05
168,Narsaq,27,GL,1563578878,67,60.91,-46.05,57.2,4.7
169,Meghraj,1,IN,1563579312,66,23.5,73.5,84.57,8.25
170,Bilma,6,NE,1563579313,23,18.69,12.92,93.94,10.56
171,Anjiang,100,CN,1563579314,94,27.32,110.14,77.55,0.63
172,Caravelas,39,BR,1563579315,72,-17.73,-39.27,70.9,13.73
173,Souillac,0,FR,1563578969,68,45.6,-0.6,71.01,3.36
174,Santiago del Estero,0,AR,1563579041,66,-27.8,-64.26,60.64,5.28
175,Sovetskiy,1,RU,1563579319,94,56.76,48.47,56.67,5.41
176,Payo,100,ID,1563579320,84,-3.75,103.64,69.64,2.17
177,Georgetown,40,GY,1563578818,88,6.8,-58.16,80.6,9.17
178,Mar del Plata,0,AR,1563578828,52,-46.43,-67.52,38.32,24.83
179,Karaton,40,ID,1563579323,74,-6.34,106.1,80.6,3.36
180,Ballina,98,IE,1563579324,95,54.11,-9.15,57.99,5.01
181,Ravar,0,IR,1563579326,18,31.27,56.81,69.27,4.07
182,Sistranda,75,NO,1563579327,100,63.73,8.83,57.99,2.24
183,Inhambane,0,MZ,1563579134,46,-23.87,35.38,68.55,12.66
184,Cherskiy,100,RU,1563578971,70,68.75,161.3,42.27,9.42
185,Dingle,83,PH,1563579330,72,11.0,122.67,80.44,1.39
186,Novi Pazar,53,RS,1563579332,91,43.14,20.51,55.05,2.21
187,Christchurch,100,NZ,1563579227,93,-43.53,172.64,48.0,8.05
188,Upernavik,100,GL,1563578842,92,72.79,-56.15,44.07,12.75
189,Telimele,97,GN,1563579335,99,10.9,-13.03,70.0,2.42
190,Norman Wells,75,CA,1563579336,42,65.28,-126.83,80.6,4.7
191,Dalvik,78,SE,1563579337,87,57.79,14.13,59.0,3.58
192,Kruisfontein,87,ZA,1563578845,71,-34.0,24.73,48.57,25.68
193,Krasnyy Kut,9,RU,1563579340,60,47.1,40.67,64.24,4.18
194,Saint Anthony,1,US,1563579341,28,43.97,-111.68,80.6,24.16
195,Zadar,0,HR,1563579342,82,44.12,15.24,68.0,0.36
196,Mount Gambier,31,AU,1563579343,66,-37.83,140.78,50.0,17.22
197,Skibbereen,75,IE,1563579345,82,51.55,-9.27,59.0,16.11
198,Taltal,0,CL,1563579346,72,-25.41,-70.49,55.42,1.99
199,Lahaina,40,US,1563579347,52,20.87,-156.68,89.6,17.22
200,Amarpur,91,IN,1563579348,95,23.52,91.65,78.64,3.98
201,Bogorodskoye,64,RU,1563579349,85,52.37,140.44,68.74,2.37
202,Chuy,20,UY,1563578892,89,-33.69,-53.46,56.14,7.54
203,Port Elizabeth,1,US,1563579352,70,39.31,-74.98,93.2,3.36
204,Laguna,75,BZ,1563579076,83,16.17,-88.94,82.4,9.17
205,Mount Isa,0,AU,1563579354,33,-20.73,139.49,59.0,4.7
206,Avera,90,US,1563578835,74,33.19,-82.53,91.4,8.05
207,Kahului,40,US,1563579357,52,20.89,-156.47,89.6,27.51
208,Bandarbeyla,42,SO,1563579358,62,9.49,50.81,76.84,28.27
209,Zyryanka,84,RU,1563579359,48,65.73,150.89,52.72,14.29
210,Kampong Chhnang,100,KH,1563579360,90,12.25,104.67,79.17,6.06
211,Buzmeyin,0,TM,1563579361,49,38.05,58.21,89.6,13.87
212,Pevek,100,RU,1563578848,98,69.7,170.27,31.84,7.78
213,Ponta Delgada,75,PT,1563579064,100,37.73,-25.67,69.8,8.05
214,Morehead,1,US,1563579365,62,38.18,-83.43,91.4,4.7
215,Hami,30,CN,1563579366,18,42.84,93.51,83.32,7.7
216,Sharan,41,AF,1563579367,61,33.15,68.78,68.55,4.12
217,Tuktoyaktuk,90,CA,1563578942,93,69.44,-133.03,48.2,10.29
218,Matara,28,BI,1563579053,87,-3.48,29.48,50.92,2.51
219,Te Anau,100,NZ,1563579371,90,-45.41,167.72,43.17,3.62
220,Golden,1,US,1563579184,11,39.76,-105.22,102.0,5.82
221,Portland,20,US,1563578699,69,43.66,-70.25,88.0,6.93
222,Samarai,100,PG,1563579374,86,-10.62,150.67,73.05,7.29
223,Haines Junction,77,CA,1563579375,53,60.75,-137.51,65.67,11.05
224,Beringovskiy,100,RU,1563579376,80,63.05,179.32,55.24,7.38
225,Karimganj,97,IN,1563579378,90,24.86,92.37,80.07,3.0
226,Anadyr,75,RU,1563579379,72,64.73,177.51,64.4,11.18
227,Khorramshahr,0,IR,1563579380,26,30.43,48.18,91.4,13.87
228,Sitka,0,US,1563578992,36,37.17,-99.65,100.0,15.99
229,Debica,0,PL,1563579382,77,50.05,21.41,69.01,3.36
230,Micheweni,0,TZ,1563579384,76,-4.97,39.83,76.12,11.65
231,Bridlington,100,GB,1563579385,93,54.08,-0.19,63.0,9.17
232,Kungalv,90,SE,1563579386,87,57.87,11.98,64.0,3.36
233,Sangar,0,RU,1563579387,37,63.92,127.47,59.02,7.09
234,Hobart,75,AU,1563578802,75,-42.88,147.33,44.6,9.17
235,Chicama,20,PE,1563579390,77,-7.84,-79.15,64.4,9.17
236,Jalalabad,40,AF,1563579391,58,34.43,70.46,84.2,4.7
237,Nioro,80,GM,1563579092,71,13.79,-15.05,77.02,11.88
238,Nome,40,US,1563579055,63,30.04,-94.42,91.4,11.41
239,San Patricio,32,PY,1563579025,95,-26.98,-56.83,62.25,5.75
240,Clinton,1,US,1563579395,83,41.28,-72.53,87.8,6.93
241,Arlit,46,NE,1563579396,19,18.74,7.39,94.84,6.76
242,Padang,100,ID,1563579398,82,-0.92,100.36,80.25,7.61
243,River Falls,40,US,1563579387,63,44.86,-92.63,93.99,11.41
244,Byron Bay,0,AU,1563579400,72,-28.65,153.62,68.0,9.17
245,Novyye Lyady,0,RU,1563579401,100,58.05,56.6,59.0,4.47
246,Dourbali,100,TD,1563579402,79,11.81,15.86,77.74,8.41
247,Nuuk,75,GL,1563579403,87,64.17,-51.74,46.4,5.82
248,Boa Vista,40,BR,1563578688,74,2.82,-60.67,80.6,3.36
249,Yar-Sale,83,RU,1563579406,80,66.83,70.83,67.65,5.41
250,Olinda,77,AU,1563579407,71,-37.84,145.39,57.0,17.22
251,Inirida,74,CO,1563579408,94,3.87,-67.92,75.4,2.13
252,Puerto Ayora,75,EC,1563578953,83,-0.74,-90.35,71.6,13.87
253,Keskin,13,TR,1563579411,67,39.67,33.62,64.0,5.82
254,Iisalmi,75,FI,1563579412,82,63.56,27.19,60.8,4.7
255,Concepcion del Oro,6,MX,1563579413,30,24.63,-101.42,75.94,14.88
256,Storforshei,7,NO,1563579414,82,66.4,14.52,50.02,1.19
257,Faya,20,SA,1563579022,20,18.39,42.45,75.2,1.81
258,Trairi,6,BR,1563579417,83,-3.28,-39.27,71.8,4.05
259,Noshiro,75,JP,1563579418,88,40.21,140.05,73.4,3.36
260,Puerto Ayacucho,40,CO,1563579419,88,5.66,-67.63,78.8,6.76
261,Cockburn Town,75,TC,1563579261,74,21.46,-71.14,84.2,13.87
262,Asyut,0,EG,1563579422,39,27.18,31.19,84.2,5.82
263,Aginskoye,100,RU,1563579423,98,51.11,114.54,60.64,7.81
264,Salinas,90,US,1563579227,64,36.67,-121.66,78.01,16.11
265,Pangnirtung,75,CA,1563578967,93,66.15,-65.72,55.4,4.7
266,Tarbert,90,GB,1563579426,100,55.86,-5.42,60.8,2.24
267,Kumburgaz,0,TR,1563579427,69,41.02,28.48,75.99,10.29
268,Rzhaksa,63,RU,1563579429,95,52.14,42.03,57.22,7.58
269,Carman,1,CA,1563579430,38,49.51,-98.0,77.0,13.87
270,Lorengau,12,PG,1563578998,79,-2.02,147.27,82.6,9.44
271,Kargasok,3,RU,1563579433,86,59.06,80.87,66.4,6.08
272,Lazo,40,RU,1563579434,86,45.88,133.65,74.32,6.42
273,Cabo San Lucas,20,MX,1563578837,43,22.89,-109.91,93.0,11.41
274,Duku,100,ID,1563579436,82,-1.19,100.47,80.25,7.61
275,Ambon,90,FR,1563579437,93,47.55,-2.56,66.99,5.82
276,Hun,0,BE,1563579438,77,50.34,4.87,68.0,5.82
277,Komsomolskiy,12,RU,1563578884,92,67.55,63.78,55.42,6.69
278,Dickinson,20,US,1563579240,31,46.88,-102.79,79.0,5.82
279,Alofi,75,NU,1563579442,78,-19.06,-169.92,80.6,9.17
280,Muroto,75,JP,1563579443,88,33.37,134.14,80.6,12.75
281,Binga,1,ZW,1563579252,40,-17.62,27.34,56.67,3.71
282,Taoudenni,22,ML,1563579446,18,22.68,-3.98,100.42,18.41
283,Bonavista,21,CA,1563579447,83,48.65,-53.11,54.0,5.99
284,Carmarthen,100,GB,1563579448,93,51.86,-4.31,66.99,25.28
285,Ossora,98,RU,1563578945,76,59.24,163.07,68.2,5.35
286,Luwuk,93,ID,1563579451,93,-0.95,122.79,66.22,3.94
287,Camacupa,0,AO,1563579452,38,-12.02,17.48,49.84,2.21
288,Croy,4,CH,1563579453,77,46.69,6.48,66.99,3.36
289,Kulotino,44,RU,1563579454,99,58.46,33.37,54.52,5.01
290,Veinticinco de Mayo,66,AR,1563579455,91,-27.38,-54.75,55.0,3.09
291,Yeppoon,1,AU,1563579440,52,-23.13,150.74,64.4,9.17
292,Keta,75,GH,1563579458,94,5.92,0.99,77.0,1.12
293,Finnsnes,29,NO,1563579459,87,69.23,17.98,57.2,4.7
294,Tautira,20,PF,1563579460,54,-17.73,-149.15,80.6,6.93
295,Brovary,0,UA,1563579461,87,50.51,30.79,64.0,4.47
296,Burnie,100,AU,1563579059,94,-41.05,145.91,50.0,3.0
297,Margate,75,AU,1563579464,75,-43.03,147.26,44.6,9.17
298,Kirakira,9,SB,1563579047,72,-10.46,161.92,83.14,9.82
299,Barcarena,40,BR,1563579466,78,-1.51,-48.62,82.4,3.36
300,Luan,1,CH,1563579467,77,46.36,6.98,71.6,3.36
301,Bambanglipuro,99,ID,1563579469,90,-7.95,110.28,75.94,15.43
302,Visnes,26,NO,1563579470,93,59.36,5.22,57.0,9.17
303,Holden,1,US,1563579471,74,42.35,-71.86,88.0,11.41
304,Tsaratanana,0,MG,1563579472,78,-16.8,47.65,58.84,6.31
305,Luderitz,0,NA,1563579388,78,-26.65,15.16,57.4,28.25
306,Mama,40,MX,1563579475,59,20.48,-89.36,89.6,17.22
307,San Ramon de la Nueva Oran,2,AR,1563579476,88,-23.13,-64.33,59.55,2.15
308,Dwarka,75,IN,1563579477,74,28.58,77.04,88.0,3.36
309,Haimen,96,CN,1563579478,90,31.87,121.18,90.0,1.01
310,Novochernorechenskiy,68,RU,1563579480,90,56.27,91.08,54.7,9.15
311,Sioux Lookout,75,CA,1563579465,69,50.1,-91.92,77.0,11.41
312,Westport,1,US,1563579482,78,41.14,-73.36,88.0,9.17
313,Vredendal,30,ZA,1563579483,68,-31.68,18.49,53.97,19.48
314,College,90,US,1563579189,52,64.86,-147.8,69.8,9.17
315,Talnakh,0,RU,1563579462,55,69.49,88.39,62.6,6.71
316,Tuatapere,100,NZ,1563579488,97,-46.13,167.69,48.0,8.99
317,Palu,39,ID,1563579489,73,-0.9,119.87,79.9,1.54
318,Port Macquarie,0,AU,1563579481,57,-31.43,152.91,60.01,9.17
319,Matay,0,EG,1563579491,58,28.42,30.79,77.55,16.53
320,Coahuayana,31,MX,1563579492,76,18.62,-100.35,83.5,1.83
321,Aklavik,75,CA,1563579493,72,68.22,-135.01,64.4,6.93
322,Vardo,1,US,1563579036,52,39.62,-77.74,95.0,10.29
323,Jutai,78,BR,1563579496,92,-1.71,-47.89,73.6,2.19
324,Kaeo,1,NZ,1563579428,100,-35.1,173.78,61.0,10.94
325,Hit,0,IQ,1563579498,35,33.64,42.83,83.85,17.9
326,Port Hardy,75,CA,1563579500,77,50.7,-127.42,62.6,8.05
327,Sharjah,0,AE,1563579346,53,25.36,55.39,96.8,9.17
328,Smithers,90,CA,1563579502,82,54.78,-127.17,55.4,6.93
329,Barra do Bugres,61,BR,1563579503,35,-15.07,-57.19,80.07,2.57
330,Antofagasta,40,CL,1563579504,76,-23.65,-70.4,55.4,5.82
331,Alyangula,0,AU,1563579505,94,-13.85,136.42,69.8,4.7
332,La Plaine,0,FR,1563579507,43,45.17,5.76,73.4,4.7
333,Pacific Grove,1,US,1563579508,56,36.62,-121.92,73.99,18.34
334,Las Choapas,40,MX,1563579509,70,17.91,-94.09,84.2,11.41
335,Brae,49,GB,1563579510,93,60.4,-1.35,57.2,14.99
336,Inzhavino,49,RU,1563579512,95,52.33,42.5,57.57,7.56
337,Aitape,32,PG,1563579513,73,-3.15,142.36,83.14,3.94
338,San Luis,96,AR,1563579515,50,-33.3,-66.34,55.24,11.92
339,Saint-Augustin,75,CA,1563579517,74,45.63,-73.98,87.01,6.93
340,Burley,1,US,1563579478,25,42.54,-113.79,80.6,12.75
341,Kenai,1,US,1563579519,63,60.55,-151.26,75.99,18.34
342,Yumen,34,CN,1563579520,23,40.29,97.04,78.1,1.19
343,Yulara,12,AU,1563579521,33,-25.24,130.99,44.6,4.7
344,Ulladulla,6,AU,1563579523,66,-35.36,150.48,51.8,10.29
345,Leningradskiy,100,RU,1563579050,91,69.38,178.42,35.8,8.39
346,Berlevag,2,NO,1563579041,86,70.86,29.09,49.84,7.67
347,Kalaleh,14,IR,1563579526,78,37.38,55.49,82.4,4.7
348,Sao Filipe,41,CV,1563579463,84,14.9,-24.5,74.85,16.51
349,Bozdar,0,PK,1563579529,66,27.18,68.64,87.8,4.7
350,Banda Aceh,100,ID,1563579360,82,5.56,95.32,80.97,22.57
351,Along,77,IN,1563579531,94,28.17,94.8,61.54,1.59
352,Alta Floresta,0,BR,1563579532,65,-9.87,-56.08,77.0,2.28
353,Morondava,0,MG,1563579533,80,-20.3,44.28,69.27,7.54
354,Ban Nahin,100,LA,1563579535,96,18.24,104.21,76.84,1.03
355,Sayyan,3,YE,1563579536,61,15.17,44.32,73.95,0.67
356,Hualmay,0,PE,1563579418,87,-11.1,-77.61,61.54,11.25
357,Takapau,100,NZ,1563579538,88,-40.02,176.35,51.01,7.0
358,Moerai,20,PF,1563579539,72,-22.43,-151.33,69.64,15.61
359,Saint-Pierre,0,FR,1563579541,67,48.95,4.24,64.4,6.93
360,Novobiryusinskiy,83,RU,1563579542,77,56.96,97.71,55.77,10.98
361,Natal,75,BR,1563579419,100,-5.81,-35.21,73.4,10.29
362,Wajima,75,JP,1563579544,94,37.4,136.9,75.2,3.36
363,Presidencia Roque Saenz Pena,55,AR,1563579545,96,-26.79,-60.44,61.9,4.34
364,Tilichiki,100,RU,1563579483,97,60.47,166.1,55.42,5.14
365,Cairns,0,AU,1563579468,67,-16.92,145.77,71.01,12.75
366,Auki,87,NG,1563579381,83,12.18,6.51,74.32,9.57
367,Esperance,75,AU,1563579550,100,-33.86,121.89,46.4,14.99
368,Ocos,75,GT,1563579399,74,14.51,-92.19,87.8,6.93
369,Kokuy,100,RU,1563579552,97,52.2,117.55,55.77,16.11
370,Costinesti,0,RO,1563579553,93,43.95,28.63,66.2,5.82
371,Cascais,20,PT,1563579555,82,38.7,-9.42,70.0,9.17
372,Tabuk,100,PH,1563579556,84,17.41,121.44,71.44,2.06
373,Vila Franca do Campo,75,PT,1563579557,100,37.72,-25.43,69.8,8.05
374,Cap Malheureux,40,MU,1563579451,88,-19.98,57.61,70.0,11.41
375,Jishou,100,CN,1563579560,89,28.26,109.7,76.47,0.13
376,Augusto Correa,53,BR,1563579561,94,-1.02,-46.63,73.05,3.04
377,Beyneu,49,KZ,1563579562,38,45.32,55.19,86.55,15.95
378,Quang Ngai,100,VN,1563579563,76,15.12,108.8,79.17,2.59
379,Sakaiminato,90,JP,1563579564,88,35.55,133.23,77.0,5.82
380,Gigmoto,100,PH,1563579566,73,13.78,124.39,84.04,9.51
381,Okhotsk,46,RU,1563579567,47,59.36,143.24,65.32,12.71
382,Hambantota,100,LK,1563579568,72,6.12,81.12,82.42,28.07
383,Charters Towers,0,AU,1563579569,52,-20.07,146.27,61.72,9.73
384,Katsuura,75,JP,1563579570,94,33.93,134.5,77.0,16.11
385,Quatre Cocos,40,MU,1563579454,88,-20.21,57.76,70.0,11.41
386,Shebalino,100,RU,1563579573,94,51.29,85.68,53.25,2.84
387,Superior,1,US,1563579574,11,39.95,-105.17,100.99,5.82
388,Lethem,40,GY,1563579575,83,3.38,-59.8,77.02,5.1
389,Cam Ranh,20,VN,1563579576,74,11.92,109.15,84.2,5.82
390,Faanui,63,PF,1563579094,79,-16.48,-151.75,76.3,18.68
391,Weyburn,15,CA,1563579579,33,49.67,-103.85,73.99,18.99
392,Ternate,75,PH,1563579580,83,14.29,120.72,82.99,4.7
393,Kulhudhuffushi,100,MV,1563579581,78,6.62,73.07,83.32,23.11
394,Tambovka,69,RU,1563579582,52,47.32,47.38,75.57,8.3
395,Abalak,62,NE,1563579584,42,15.46,6.28,88.17,15.05
396,Voh,26,NC,1563579585,75,-20.95,164.69,68.92,15.23
397,Pundaguitan,45,PH,1563579586,71,6.37,126.17,82.05,4.03
398,Bull Savanna,2,JM,1563579043,79,17.89,-77.59,84.75,3.33
399,Nishihara,20,JP,1563579438,88,35.74,139.53,84.99,2.01
400,Binzhou,26,CN,1563579590,71,37.38,117.96,84.0,5.12
401,Thayetmyo,100,MM,1563579594,95,19.32,95.18,75.94,3.74
402,Shelburne,20,CA,1563579595,74,44.08,-80.2,86.0,9.17
403,Ilhabela,89,BR,1563579596,75,-23.78,-45.36,69.82,16.75
404,Whakatane,88,NZ,1563579598,71,-37.96,176.99,59.0,1.99
405,Chapais,75,CA,1563579599,57,49.78,-74.86,77.0,11.41
406,Itarema,34,BR,1563579600,81,-2.92,-39.92,75.22,7.14
407,Segovia,0,ES,1563579601,19,40.95,-4.12,87.8,9.17
408,Carnarvon,61,ZA,1563579077,84,-30.97,22.13,37.42,11.61
409,Sao Jose da Coroa Grande,55,BR,1563579603,95,-8.9,-35.15,70.17,5.19
410,Praya,75,ID,1563579605,100,-8.71,116.27,73.4,3.36
411,Lerwick,49,GB,1563579606,93,60.15,-1.15,57.2,9.17
412,Sambava,0,MG,1563579607,88,-14.27,50.17,63.52,3.49
413,Benguela,67,AO,1563579608,80,-12.58,13.4,70.35,0.78
414,Nacala,2,MZ,1563579609,92,-14.56,40.69,62.8,2.75
415,Lumsden,20,CA,1563579611,46,50.65,-104.86,69.8,24.16
416,San Juan,97,AR,1563579612,21,-31.54,-68.53,51.27,4.52
417,Penzance,80,GB,1563579613,100,50.12,-5.53,62.6,16.11
418,Mabopane,0,ZA,1563579614,35,-25.51,28.07,48.99,4.7
419,Coquimbo,0,CL,1563579615,82,-29.95,-71.34,55.4,15.64
420,Severo-Yeniseyskiy,0,RU,1563579617,59,60.37,93.04,55.24,9.75
421,Vitim,100,RU,1563579618,41,59.44,112.57,59.37,18.57
422,Ambanja,0,MG,1563579619,77,-13.68,48.45,74.5,6.49
423,Clarence Town,0,AU,1563579620,70,-32.59,151.78,55.99,5.82
424,Fremont,1,US,1563579394,39,37.55,-121.99,84.99,16.11
425,Praia da Vitoria,20,PT,1563579416,78,38.73,-27.07,75.2,14.61
426,Kopeysk,40,RU,1563579624,78,55.11,61.62,71.6,6.71
427,Half Moon Bay,90,US,1563579625,77,37.46,-122.43,82.0,11.41
428,Payakumbuh,100,ID,1563579626,93,-0.23,100.63,65.32,2.57
429,Merauke,93,ID,1563579627,77,-8.49,140.4,76.65,18.81
430,Comodoro Rivadavia,0,AR,1563579410,52,-45.87,-67.48,44.6,19.46
431,Hailar,100,CN,1563579630,92,49.2,119.7,66.94,14.05
432,Uthal,27,PK,1563579631,76,25.81,66.62,81.87,4.09
433,Caernarfon,94,GB,1563579632,93,53.14,-4.27,63.0,19.46
434,Flinders,0,AU,1563579633,66,-34.58,150.85,57.0,10.29
435,Havre-Saint-Pierre,90,CA,1563579634,67,50.23,-63.6,62.6,3.36
436,Tres Arroyos,100,AR,1563579636,52,-38.38,-60.28,49.12,10.96
437,Balkanabat,0,TM,1563579637,55,39.51,54.36,83.32,10.29
438,Meulaboh,100,ID,1563579638,83,4.14,96.13,79.54,13.35
439,Victoria Point,0,AU,1563579639,54,-27.58,153.3,66.0,13.87
440,Armeria,75,MX,1563579640,78,18.93,-103.97,89.6,17.22
441,Astana,0,KZ,1563579642,63,51.13,71.43,60.8,8.95
442,Alice Springs,13,AU,1563579499,34,-23.7,133.88,53.6,1.12
443,Riobamba,75,EC,1563579644,88,-1.67,-78.65,69.8,3.36
444,Yelets,5,RU,1563579645,90,52.61,38.49,55.05,10.25
445,Mandali,0,IQ,1563579646,24,33.75,45.55,84.94,12.26
446,Biu,100,NG,1563579648,90,10.61,12.19,72.15,4.38
447,Maragogi,55,BR,1563579649,95,-9.01,-35.22,70.17,5.19
448,Zharkent,32,KZ,1563579651,57,44.17,80.0,55.42,1.25
449,Ust-Maya,2,RU,1563579655,40,60.42,134.54,58.65,8.88
450,Loa Janan,32,ID,1563579657,92,-0.58,117.09,77.88,0.67
451,Winneba,75,GH,1563579658,94,5.35,-0.62,77.0,13.87
452,Lavrentiya,99,RU,1563579431,61,65.58,-170.99,61.35,9.22
453,Marzuq,72,YE,1563579661,29,14.4,46.47,74.64,1.5
454,Mersing,100,MY,1563579441,87,2.43,103.84,74.5,1.88
455,Champerico,40,MX,1563579663,52,16.38,-93.6,87.8,11.41
456,Chabahar,76,IR,1563579664,76,25.29,60.65,81.48,3.62
457,Holme,83,DK,1563579665,87,56.11,10.17,57.99,2.28
458,Tiznit,84,MA,1563579666,94,29.7,-9.73,67.26,10.47
459,Kingman,1,US,1563579418,4,35.19,-114.05,109.0,23.04
460,Kilis,0,TR,1563579669,41,36.72,37.12,77.0,1.12
461,Ilo,82,PE,1563579670,83,-17.65,-71.34,58.26,1.92
462,Emba,20,CY,1563579509,83,34.81,32.42,75.2,4.7
463,Bure,100,NG,1563579672,83,10.52,10.33,70.68,1.97
464,Fort Nelson,40,CA,1563579674,53,58.81,-122.69,75.2,3.36
465,Ostrow Mazowiecka,81,PL,1563579675,47,52.8,21.9,66.0,4.83
466,Pinawa,0,CA,1563579676,59,50.15,-95.88,70.5,12.06
467,Nanortalik,99,GL,1563579451,96,60.14,-45.24,43.0,2.24
468,Catuday,100,PH,1563579678,77,16.29,119.81,84.54,14.67
469,Lagunas,3,PE,1563579680,80,-5.23,-75.68,76.08,2.28
470,Abu Samrah,0,SY,1563579681,86,35.3,37.18,67.62,9.91
471,Guymon,1,US,1563579682,22,36.68,-101.48,102.99,18.34
472,Atasu,0,KZ,1563579683,50,48.68,71.64,65.1,5.28
473,Abeche,58,TD,1563579685,48,13.83,20.83,85.08,2.48
474,Ailigandi,75,PA,1563579686,85,9.23,-78.02,82.2,9.1
475,Dunedin,100,NZ,1563579687,97,-45.87,170.5,48.99,15.75
476,Butembo,15,CD,1563579688,94,0.12,29.29,60.06,3.11
477,Belaya Gora,77,RU,1563579434,58,68.54,146.19,50.37,8.46
478,Tuy Hoa,96,VN,1563579690,77,13.08,109.3,79.14,5.1
479,Francistown,0,BW,1563579692,28,-21.17,27.5,52.68,5.59
480,Sar-e Pul,0,AF,1563579693,12,36.22,65.93,82.56,16.89
481,Tazovskiy,0,RU,1563579444,64,67.47,78.7,58.84,12.19
482,Shaunavon,9,CA,1563579695,43,49.65,-108.41,65.64,11.99
483,Teruel,0,ES,1563579696,68,40.34,-1.11,71.6,8.05
484,Weymouth,8,US,1563579698,70,42.22,-70.94,90.0,13.87
485,Punta Alta,0,AR,1563579699,82,-27.46,-55.82,62.6,5.82
486,Pesochnoye,10,RU,1563579700,97,58.01,39.18,49.62,2.86
487,Manaus,20,BR,1563579701,74,-3.13,-59.98,82.4,2.24
488,Lovozero,49,RU,1563579702,87,68.01,35.02,42.24,3.27
489,Lata,0,IN,1563579460,84,30.78,78.62,39.22,2.35
490,Aktau,0,KZ,1563579705,60,43.65,51.16,75.2,8.95
491,Chon Daen,20,TH,1563579706,83,16.19,100.86,78.8,3.36
492,Kang,0,BW,1563579707,25,-23.67,22.79,47.82,8.95
493,Barsovo,40,RU,1563579708,100,61.17,73.17,66.2,6.71
494,Mitsamiouli,0,KM,1563579710,70,-11.38,43.28,76.62,11.05
495,Vanino,6,RU,1563579711,74,53.93,40.55,60.01,3.0
496,Birstonas,0,LT,1563579712,81,54.62,24.03,53.6,1.54
497,Broome,100,GB,1563579713,93,52.47,1.45,64.99,11.41
498,Palana,100,RU,1563579714,96,59.08,159.95,51.06,13.82
499,Madang,0,CN,1563579716,79,35.32,102.79,46.56,1.72
500,Ngunguru,23,NZ,1563579717,75,-35.62,174.5,60.01,10.0
501,Bressuire,0,FR,1563579718,72,46.84,-0.49,68.0,2.24
502,Aboso,100,GH,1563579719,96,5.36,-1.95,73.02,1.36
503,Bucerias,90,MX,1563579721,94,20.76,-105.33,78.01,4.7
504,Fuling,82,CN,1563579722,90,29.71,107.39,77.16,1.21
505,Juneau,90,US,1563579575,93,58.3,-134.42,59.0,8.05
506,Mananjary,1,MG,1563579724,86,-19.16,46.8,54.66,5.19
507,Snyder,1,US,1563579725,29,32.72,-100.92,102.0,19.46
508,Yele,100,CM,1563579727,86,10.73,13.59,72.84,5.59
509,Tual,1,ID,1563579431,86,-5.67,132.75,77.37,19.46
510,Waddan,0,LY,1563579437,60,29.16,16.14,73.42,10.56
511,Namibe,60,AO,1563579730,87,-15.19,12.15,68.7,3.09
512,Nouadhibou,0,MR,1563579731,77,20.93,-17.03,68.0,21.92
513,Grand Gaube,40,MU,1563579451,88,-20.01,57.66,70.0,11.41
514,Trincomalee,72,LK,1563579734,70,8.58,81.23,80.22,8.48
515,Mendoza,0,AR,1563579735,52,-32.89,-68.84,50.0,4.7
516,Torbay,20,CA,1563579717,81,47.66,-52.73,57.0,5.82
517,Porto Novo,0,BR,1563579572,87,-23.68,-45.44,57.2,5.82
518,Tabou,100,CI,1563579738,93,4.42,-7.36,74.64,6.35
519,Anandnagar,75,IN,1563579740,88,18.71,73.3,82.4,4.7
520,Buala,72,SB,1563579741,74,-8.15,159.59,82.74,10.51
521,Abha,20,SA,1563579742,20,18.22,42.5,75.2,4.45
522,Sunland Park,1,US,1563579743,15,31.8,-106.58,102.0,7.07
523,Kangaatsiaq,78,GL,1563579745,90,68.31,-53.46,44.4,7.61
524,Lloret de Mar,20,ES,1563579523,94,41.7,2.85,77.0,2.24
525,Abilene,1,US,1563579747,23,32.45,-99.73,99.0,20.8
526,Mushie,60,CD,1563579748,68,-3.02,16.92,74.46,3.91
527,Jingdezhen,3,CN,1563579749,79,29.29,117.2,82.92,1.3
528,Khandyga,64,RU,1563579751,63,62.65,135.58,53.22,5.12
529,Talara,0,PE,1563579586,290,-4.58,-81.27,62.6,12.75
530,Kodino,47,RU,1563579753,82,63.72,39.64,48.18,6.22
531,Krasnoarmeysk,75,RU,1563579754,100,56.12,38.15,61.0,8.95
532,Baykit,0,RU,1563579755,49,61.68,96.39,56.46,12.64
533,Aksay,4,KZ,1563579757,90,51.17,53.01,65.46,8.88
534,Necochea,100,AR,1563579758,85,-38.55,-58.74,51.01,8.01
535,Galbshtadt,93,RU,1563579759,95,53.23,78.98,62.04,7.74
536,Biak,96,ID,1563579760,93,-0.91,122.88,66.36,3.94
537,Quelimane,0,MZ,1563579762,93,-17.88,36.89,66.2,2.24
538,Kasongo-Lunda,4,CD,1563579613,59,-6.48,16.82,65.5,4.5
539,Hamilton,75,CA,1563579544,88,43.26,-79.87,87.01,14.99
540,Grindavik,20,IS,1563579765,93,63.84,-22.43,55.99,11.41
541,Hobyo,59,SO,1563579766,63,5.35,48.53,76.44,23.04
542,San Carlos de Bariloche,75,AR,1563579768,86,-41.13,-71.31,33.8,13.87
543,Colomi,75,BO,1563579769,36,-17.34,-65.87,62.6,11.41
544,Brownsville,20,US,1563579770,55,25.91,-97.49,93.2,20.8
545,Flin Flon,20,CA,1563579771,68,54.77,-101.88,69.8,5.82
546,Kutum,34,SD,1563579772,55,14.2,24.66,78.24,7.72
547,Quatis,73,BR,1563579774,91,-22.41,-44.26,51.96,0.63
548,Gonen,0,IL,1563579775,82,33.12,35.65,75.99,4.74
549,Muravlenko,20,RU,1563579776,67,63.79,74.5,74.1,6.49
550,Cibitoke,17,BI,1563579777,71,-2.89,29.12,61.32,2.62
551,Prince Rupert,75,CA,1563579665,72,54.32,-130.32,62.6,4.7
552,Behshahr,75,IR,1563579779,94,36.69,53.54,78.8,4.7
553,Ust-Nera,100,RU,1563579781,81,64.57,143.24,37.2,9.24
554,Bakchar,10,RU,1563579782,95,57.02,82.07,63.12,4.54
555,Anchorage,1,US,1563579783,44,61.22,-149.89,79.0,19.46
556,Kopavogur,20,IS,1563579784,66,64.11,-21.91,55.99,2.24
557,San Nicolas,75,PH,1563579785,83,13.93,120.95,82.99,4.7
558,Buchanan,75,LR,1563579787,94,5.88,-10.05,77.0,3.36
